[{"id":1,"name":"Bakovci","lat":46.5756337,"lng":16.1741662,"capacity":52,"trend":172,"status":"high"},
{"id":2,"name":"Pesqueira","lat":-8.3627277,"lng":-36.7388486,"capacity":283,"trend":21,"status":"high"},
{"id":3,"name":"Rathwire","lat":53.508326,"lng":-7.145971,"capacity":219,"trend":237,"status":"medium"},
{"id":4,"name":"Saint-Félicien","lat":48.6513092,"lng":-72.4519727,"capacity":200,"trend":35,"status":"medium"},
{"id":5,"name":"Lubāna","lat":56.8999269,"lng":26.7198789,"capacity":160,"trend":118,"status":"medium"},
{"id":6,"name":"Čair","lat":41.9986907,"lng":21.4874715,"capacity":164,"trend":227,"status":"low"},
{"id":7,"name":"Shiqiaotou","lat":31.30275,"lng":121.389084,"capacity":281,"trend":109,"status":"medium"},
{"id":8,"name":"Apartadó","lat":7.882761,"lng":-76.624692,"capacity":222,"trend":82,"status":"low"},
{"id":9,"name":"Yaroslavl","lat":55.775282,"lng":37.61479,"capacity":84,"trend":186,"status":"high"},
{"id":10,"name":"Karangsono","lat":-8.2373951,"lng":113.5103504,"capacity":124,"trend":138,"status":"high"},
{"id":11,"name":"Ivry-sur-Seine","lat":48.819324,"lng":2.394771,"capacity":118,"trend":148,"status":"low"},
{"id":12,"name":"Moro","lat":26.6416058,"lng":67.9933369,"capacity":229,"trend":101,"status":"high"},
{"id":13,"name":"Ulee Gle","lat":4.9026627,"lng":97.7878579,"capacity":202,"trend":52,"status":"low"},
{"id":14,"name":"Kleszczewo","lat":52.32659,"lng":17.1790537,"capacity":78,"trend":1,"status":"low"},
{"id":15,"name":"Kamieniec Podolski","lat":48.6967162,"lng":26.5825364,"capacity":225,"trend":179,"status":"low"},
{"id":16,"name":"Saraburi","lat":14.6790319,"lng":100.6985155,"capacity":224,"trend":138,"status":"medium"},
{"id":17,"name":"Västerås","lat":59.719721,"lng":16.4276415,"capacity":141,"trend":139,"status":"medium"},
{"id":18,"name":"Alor Setar","lat":6.1282298,"lng":100.3919033,"capacity":148,"trend":290,"status":"medium"},
{"id":19,"name":"Lārkāna","lat":27.5632781,"lng":68.2167517,"capacity":248,"trend":103,"status":"medium"},
{"id":20,"name":"Ivoti","lat":-29.5795648,"lng":-51.1689963,"capacity":119,"trend":122,"status":"high"},
{"id":21,"name":"Xizhong","lat":39.444422,"lng":121.31294,"capacity":298,"trend":105,"status":"medium"},
{"id":22,"name":"Beberon","lat":13.5438736,"lng":123.1446683,"capacity":295,"trend":241,"status":"medium"},
{"id":23,"name":"Talalora","lat":11.5352048,"lng":124.8289296,"capacity":142,"trend":53,"status":"medium"},
{"id":24,"name":"Bokaa","lat":-24.42787,"lng":26.023656,"capacity":66,"trend":152,"status":"high"},
{"id":25,"name":"Talambung Laok","lat":-7.0395,"lng":113.69823,"capacity":175,"trend":218,"status":"low"},
{"id":26,"name":"Valuyki","lat":50.2350707,"lng":38.0596975,"capacity":101,"trend":27,"status":"low"},
{"id":27,"name":"Staré Hradiště","lat":50.0653975,"lng":15.7788513,"capacity":196,"trend":131,"status":"high"},
{"id":28,"name":"Moravský Krumlov","lat":49.0337963,"lng":16.2983865,"capacity":163,"trend":36,"status":"medium"},
{"id":29,"name":"Hongdu","lat":25.8749206,"lng":116.0386902,"capacity":127,"trend":293,"status":"low"},
{"id":30,"name":"Valladolid","lat":41.6465777,"lng":-4.7497457,"capacity":251,"trend":273,"status":"medium"},
{"id":31,"name":"Bontoc","lat":10.3570803,"lng":124.9696526,"capacity":252,"trend":4,"status":"high"},
{"id":32,"name":"São João do Campo","lat":40.2365225,"lng":-8.5110798,"capacity":209,"trend":38,"status":"medium"},
{"id":33,"name":"Na Di","lat":14.2030447,"lng":101.7751709,"capacity":271,"trend":240,"status":"medium"},
{"id":34,"name":"Tiyingtali Kelod","lat":-8.4105413,"lng":115.6141801,"capacity":87,"trend":72,"status":"medium"},
{"id":35,"name":"Vidče","lat":49.441512,"lng":18.0947362,"capacity":183,"trend":276,"status":"high"},
{"id":36,"name":"Alue Glumpang","lat":5.23113,"lng":96.7524103,"capacity":279,"trend":204,"status":"high"},
{"id":37,"name":"Thị Trấn Cẩm Thủy","lat":20.2109764,"lng":105.4683193,"capacity":71,"trend":198,"status":"medium"},
{"id":38,"name":"Liborina","lat":6.67745,"lng":-75.811744,"capacity":197,"trend":9,"status":"medium"},
{"id":39,"name":"Iúna","lat":-20.353624,"lng":-41.5338333,"capacity":124,"trend":135,"status":"low"},
{"id":40,"name":"Khiwa","lat":41.3895075,"lng":60.3414529,"capacity":190,"trend":24,"status":"medium"},
{"id":41,"name":"Pavliš","lat":45.112439,"lng":21.2185241,"capacity":79,"trend":214,"status":"high"},
{"id":42,"name":"Sizao","lat":32.661925,"lng":120.601922,"capacity":282,"trend":5,"status":"medium"},
{"id":43,"name":"Odivelas","lat":38.1678374,"lng":-8.1496483,"capacity":140,"trend":79,"status":"low"},
{"id":44,"name":"Shanhou","lat":23.354091,"lng":116.681972,"capacity":74,"trend":20,"status":"medium"},
{"id":45,"name":"Nagrak","lat":-6.8435796,"lng":106.8296372,"capacity":50,"trend":284,"status":"medium"},
{"id":46,"name":"Loujiadian","lat":42.060385,"lng":120.665667,"capacity":204,"trend":239,"status":"low"},
{"id":47,"name":"Lypnyazhka","lat":48.4442035,"lng":31.0795105,"capacity":245,"trend":290,"status":"low"},
{"id":48,"name":"Houston","lat":30.0118752,"lng":-95.4463322,"capacity":154,"trend":251,"status":"high"},
{"id":49,"name":"Kiviõli","lat":59.3559924,"lng":26.9669311,"capacity":174,"trend":25,"status":"high"},
{"id":50,"name":"Stockholm","lat":47.0165054,"lng":-68.1430064,"capacity":232,"trend":212,"status":"low"},
{"id":51,"name":"Kynopiástes","lat":39.5676563,"lng":19.8839657,"capacity":228,"trend":102,"status":"high"},
{"id":52,"name":"Pradera","lat":3.4481685,"lng":-76.1667807,"capacity":273,"trend":125,"status":"high"},
{"id":53,"name":"Jiji","lat":22.2481519,"lng":113.5755553,"capacity":142,"trend":297,"status":"high"},
{"id":54,"name":"Gryaznovskoye","lat":56.7829665,"lng":61.7005127,"capacity":197,"trend":52,"status":"medium"},
{"id":55,"name":"Qianchuan","lat":30.2516885,"lng":120.170382,"capacity":94,"trend":292,"status":"low"},
{"id":56,"name":"Bandaragung","lat":-5.3003056,"lng":105.6823124,"capacity":62,"trend":97,"status":"low"},
{"id":57,"name":"Quivilla","lat":-9.548008,"lng":-76.66935,"capacity":135,"trend":207,"status":"high"},
{"id":58,"name":"Bearna","lat":53.2993199,"lng":-6.2340942,"capacity":217,"trend":159,"status":"high"},
{"id":59,"name":"Wiphawadi","lat":9.1254001,"lng":98.8803925,"capacity":293,"trend":285,"status":"medium"},
{"id":60,"name":"Poções","lat":-14.5124962,"lng":-40.3496894,"capacity":267,"trend":189,"status":"low"},
{"id":61,"name":"Matumadua","lat":-9.38948,"lng":119.75371,"capacity":200,"trend":32,"status":"high"},
{"id":62,"name":"Aconibe","lat":1.2964078,"lng":10.9439689,"capacity":278,"trend":197,"status":"high"},
{"id":63,"name":"La Libertad","lat":17.6891622,"lng":-91.7190274,"capacity":188,"trend":206,"status":"low"},
{"id":64,"name":"Alebtong","lat":2.2545773,"lng":33.3486147,"capacity":113,"trend":37,"status":"high"},
{"id":65,"name":"Bijeli","lat":-9.6666989,"lng":124.3365882,"capacity":199,"trend":283,"status":"high"},
{"id":66,"name":"Le Mans","lat":47.9956173,"lng":0.1924459,"capacity":180,"trend":278,"status":"low"},
{"id":67,"name":"Botoh","lat":-7.2608514,"lng":111.7793523,"capacity":159,"trend":67,"status":"high"},
{"id":68,"name":"Piedra Blanca","lat":19.5094038,"lng":-71.595154,"capacity":134,"trend":83,"status":"medium"},
{"id":69,"name":"Baitoa","lat":19.309169,"lng":-70.6977162,"capacity":151,"trend":235,"status":"medium"},
{"id":70,"name":"Coaticook","lat":45.1306898,"lng":-71.8121012,"capacity":112,"trend":151,"status":"high"},
{"id":71,"name":"San Simon","lat":14.9973644,"lng":120.7777605,"capacity":234,"trend":147,"status":"low"},
{"id":72,"name":"Hitoyoshi","lat":32.1911268,"lng":130.785523,"capacity":277,"trend":186,"status":"medium"},
{"id":73,"name":"Birzai","lat":56.2039328,"lng":24.7570093,"capacity":277,"trend":59,"status":"high"},
{"id":74,"name":"Oepula","lat":-9.7464338,"lng":124.4309165,"capacity":143,"trend":9,"status":"high"},
{"id":75,"name":"Zhili","lat":39.914373,"lng":116.454205,"capacity":176,"trend":41,"status":"medium"},
{"id":76,"name":"Nubl","lat":36.3755668,"lng":36.9917125,"capacity":77,"trend":263,"status":"medium"},
{"id":77,"name":"Cimo de Vila","lat":41.3389801,"lng":-8.1591621,"capacity":198,"trend":110,"status":"high"},
{"id":78,"name":"Pangkalan Kasai","lat":-0.6059095,"lng":102.4151335,"capacity":234,"trend":63,"status":"high"},
{"id":79,"name":"Sukoanyar","lat":-8.0914709,"lng":112.718192,"capacity":286,"trend":153,"status":"high"},
{"id":80,"name":"Mojokerto","lat":-7.4704747,"lng":112.4401329,"capacity":116,"trend":23,"status":"high"},
{"id":81,"name":"Sępólno Krajeńskie","lat":53.4513,"lng":17.5316201,"capacity":162,"trend":192,"status":"low"},
{"id":82,"name":"Tai’an","lat":36.200252,"lng":117.087614,"capacity":274,"trend":166,"status":"low"},
{"id":83,"name":"Otlja","lat":42.14389,"lng":21.58778,"capacity":246,"trend":5,"status":"high"},
{"id":84,"name":"Nantang","lat":22.058407,"lng":110.792856,"capacity":269,"trend":146,"status":"low"},
{"id":85,"name":"Ros’","lat":53.2833165,"lng":24.4054988,"capacity":161,"trend":288,"status":"medium"},
{"id":86,"name":"Chastyye","lat":57.28876,"lng":54.97278,"capacity":173,"trend":21,"status":"low"},
{"id":87,"name":"Lysychovo","lat":48.4959725,"lng":23.2844139,"capacity":193,"trend":101,"status":"high"},
{"id":88,"name":"Caldas da Felgueira","lat":40.4878138,"lng":-7.8661822,"capacity":104,"trend":237,"status":"medium"},
{"id":89,"name":"Kalilu","lat":43.600345,"lng":121.316445,"capacity":136,"trend":160,"status":"high"},
{"id":90,"name":"Sayang Lauq","lat":-8.5694,"lng":116.1325,"capacity":73,"trend":279,"status":"low"},
{"id":91,"name":"Laixi","lat":36.889084,"lng":120.51769,"capacity":270,"trend":259,"status":"medium"},
{"id":92,"name":"Zarumilla","lat":-3.4949817,"lng":-80.2711588,"capacity":271,"trend":119,"status":"low"},
{"id":93,"name":"Sernovodsk","lat":43.336168,"lng":45.168817,"capacity":51,"trend":87,"status":"high"},
{"id":94,"name":"Ra’s Bayrūt","lat":33.8989467,"lng":35.4733996,"capacity":161,"trend":57,"status":"high"},
{"id":95,"name":"Pekuncen","lat":-7.3519383,"lng":109.0809868,"capacity":237,"trend":249,"status":"high"},
{"id":96,"name":"Pushkin","lat":59.7591906,"lng":30.4729492,"capacity":230,"trend":115,"status":"high"},
{"id":97,"name":"Wilkes Barre","lat":41.2505888,"lng":-75.8520879,"capacity":136,"trend":24,"status":"high"},
{"id":98,"name":"Dula’er Ewenke Minzu","lat":48.851792,"lng":123.810261,"capacity":268,"trend":128,"status":"high"},
{"id":99,"name":"Qiaotou","lat":28.168408,"lng":120.482198,"capacity":175,"trend":84,"status":"high"},
{"id":100,"name":"Aranos","lat":-24.1377718,"lng":19.1107114,"capacity":174,"trend":275,"status":"high"},
{"id":101,"name":"Custódia","lat":-8.2197304,"lng":-37.7237678,"capacity":114,"trend":83,"status":"medium"},
{"id":102,"name":"Shuyuan","lat":40.039342,"lng":116.260921,"capacity":201,"trend":209,"status":"medium"},
{"id":103,"name":"Yongfu","lat":24.979855,"lng":109.983076,"capacity":249,"trend":198,"status":"low"},
{"id":104,"name":"Roma","lat":19.4095846,"lng":-99.1575732,"capacity":217,"trend":160,"status":"high"},
{"id":105,"name":"Mengdadazhuang","lat":35.83339,"lng":102.6395,"capacity":67,"trend":30,"status":"medium"},
{"id":106,"name":"Harrisburg","lat":40.2684396,"lng":-76.8832658,"capacity":235,"trend":217,"status":"low"},
{"id":107,"name":"Mbuji-Mayi","lat":-6.1306709,"lng":23.5966577,"capacity":169,"trend":47,"status":"medium"},
{"id":108,"name":"Jindong","lat":29.099294,"lng":119.692696,"capacity":159,"trend":164,"status":"low"},
{"id":109,"name":"Qiujima","lat":33.20206,"lng":105.278491,"capacity":297,"trend":224,"status":"low"},
{"id":110,"name":"Ait Ali","lat":36.569805,"lng":4.448361,"capacity":150,"trend":145,"status":"low"},
{"id":111,"name":"Itapemirim","lat":-20.9829904,"lng":-40.9990597,"capacity":172,"trend":44,"status":"low"},
{"id":112,"name":"Kataba","lat":-11.883333,"lng":29.783333,"capacity":297,"trend":284,"status":"low"},
{"id":113,"name":"Sarykemer","lat":43.0052216,"lng":71.513917,"capacity":142,"trend":17,"status":"high"},
{"id":114,"name":"Pasiragung","lat":-7.0773485,"lng":108.4602464,"capacity":219,"trend":95,"status":"high"},
{"id":115,"name":"Lyon","lat":45.7397125,"lng":4.8372255,"capacity":108,"trend":76,"status":"low"},
{"id":116,"name":"Bayanbaogede","lat":41.234822,"lng":100.482354,"capacity":191,"trend":16,"status":"high"},
{"id":117,"name":"Pimbalayan","lat":6.7987866,"lng":124.6192703,"capacity":187,"trend":182,"status":"low"},
{"id":118,"name":"Mislīyah","lat":32.38613,"lng":35.2878,"capacity":83,"trend":190,"status":"low"},
{"id":119,"name":"Jiru","lat":29.083994,"lng":87.648747,"capacity":57,"trend":3,"status":"high"},
{"id":120,"name":"Knin","lat":44.0407757,"lng":16.1964988,"capacity":180,"trend":62,"status":"medium"},
{"id":121,"name":"Carianos","lat":-27.6662277,"lng":-48.5269452,"capacity":202,"trend":62,"status":"low"},
{"id":122,"name":"Fuan","lat":5.4196539,"lng":100.330856,"capacity":300,"trend":32,"status":"medium"},
{"id":123,"name":"Dadong","lat":41.805137,"lng":123.4699481,"capacity":166,"trend":159,"status":"low"},
{"id":124,"name":"Santa Marta de Penaguião","lat":41.2101265,"lng":-7.7869527,"capacity":259,"trend":115,"status":"high"},
{"id":125,"name":"Saint Louis","lat":38.63,"lng":-90.2099999,"capacity":201,"trend":120,"status":"high"},
{"id":126,"name":"Kalinovskoye","lat":52.958682,"lng":48.319948,"capacity":101,"trend":71,"status":"low"},
{"id":127,"name":"Zyukayka","lat":58.2084997,"lng":54.707343,"capacity":137,"trend":20,"status":"medium"},
{"id":128,"name":"Carcassonne","lat":44.346784,"lng":5.8855505,"capacity":236,"trend":181,"status":"high"},
{"id":129,"name":"Buur Gaabo","lat":2.7991084,"lng":44.0793911,"capacity":219,"trend":110,"status":"high"},
{"id":130,"name":"Surkhakhi","lat":43.1927985,"lng":44.8994082,"capacity":222,"trend":171,"status":"medium"},
{"id":131,"name":"Tagasilay","lat":7.3042466,"lng":122.258933,"capacity":232,"trend":186,"status":"medium"},
{"id":132,"name":"Bodzentyn","lat":50.9409245,"lng":20.9571249,"capacity":253,"trend":200,"status":"high"},
{"id":133,"name":"Shcherbinka","lat":55.536259,"lng":37.5985159,"capacity":271,"trend":139,"status":"high"},
{"id":134,"name":"Vrdy","lat":49.9287189,"lng":15.4598339,"capacity":220,"trend":167,"status":"high"},
{"id":135,"name":"Rumbek","lat":6.8072494,"lng":29.6788877,"capacity":94,"trend":258,"status":"low"},
{"id":136,"name":"Wakefield","lat":-41.2913531,"lng":174.7799667,"capacity":189,"trend":296,"status":"low"},
{"id":137,"name":"Ripky","lat":51.8051758,"lng":31.0940874,"capacity":263,"trend":91,"status":"high"},
{"id":138,"name":"Miami","lat":25.6697865,"lng":-80.4660256,"capacity":161,"trend":144,"status":"medium"},
{"id":139,"name":"Sarilhos Grandes","lat":38.6841753,"lng":-8.9548647,"capacity":122,"trend":212,"status":"low"},
{"id":140,"name":"Babahoyo","lat":-1.801926,"lng":-79.5346459,"capacity":155,"trend":236,"status":"high"},
{"id":141,"name":"Abū Ghaush","lat":31.806293,"lng":35.109193,"capacity":259,"trend":220,"status":"high"},
{"id":142,"name":"‘Ābūd","lat":32.016539,"lng":35.068807,"capacity":288,"trend":149,"status":"low"},
{"id":143,"name":"Khromtau","lat":50.2577508,"lng":58.432675,"capacity":51,"trend":20,"status":"high"},
{"id":144,"name":"Wuxia","lat":35.529096,"lng":112.849999,"capacity":106,"trend":250,"status":"high"},
{"id":145,"name":"Pingyang","lat":27.661918,"lng":120.565793,"capacity":144,"trend":244,"status":"low"},
{"id":146,"name":"Luleå","lat":67.1355975,"lng":20.6859936,"capacity":287,"trend":165,"status":"high"},
{"id":147,"name":"Troitskiy","lat":57.0604037,"lng":63.7407347,"capacity":159,"trend":108,"status":"high"},
{"id":148,"name":"Ueki","lat":36.8830175,"lng":137.4502378,"capacity":295,"trend":125,"status":"high"},
{"id":149,"name":"Hougang","lat":1.3573565,"lng":103.8832261,"capacity":116,"trend":242,"status":"low"},
{"id":150,"name":"Gangou","lat":24.513025,"lng":117.647093,"capacity":64,"trend":112,"status":"high"},
{"id":151,"name":"Toulouse","lat":43.6504207,"lng":1.3412205,"capacity":70,"trend":84,"status":"low"},
{"id":152,"name":"Tanjungbalai","lat":2.9662346,"lng":99.7985457,"capacity":80,"trend":153,"status":"high"},
{"id":153,"name":"Kizema","lat":61.1012691,"lng":44.8327881,"capacity":226,"trend":223,"status":"low"},
{"id":154,"name":"Blumenau","lat":-26.9165792,"lng":-49.0717331,"capacity":145,"trend":286,"status":"high"},
{"id":155,"name":"Taveiro","lat":40.1999522,"lng":-8.5031422,"capacity":261,"trend":84,"status":"high"},
{"id":156,"name":"Västerås","lat":59.6322811,"lng":16.5613311,"capacity":187,"trend":290,"status":"high"},
{"id":157,"name":"Chakou","lat":22.483182,"lng":113.916509,"capacity":141,"trend":204,"status":"high"},
{"id":158,"name":"Paraty","lat":-23.2218772,"lng":-44.7235076,"capacity":145,"trend":261,"status":"low"},
{"id":159,"name":"El Socorro","lat":14.6408102,"lng":-87.921223,"capacity":196,"trend":176,"status":"low"},
{"id":160,"name":"Al Mughayyir","lat":32.421701,"lng":35.386433,"capacity":60,"trend":288,"status":"high"},
{"id":161,"name":"Uralets","lat":57.6602926,"lng":59.656685,"capacity":163,"trend":198,"status":"low"},
{"id":162,"name":"Tagakpan","lat":7.0708519,"lng":125.4704601,"capacity":140,"trend":135,"status":"low"},
{"id":163,"name":"Shuangwang","lat":21.795522,"lng":109.825927,"capacity":263,"trend":52,"status":"low"},
{"id":164,"name":"El Alto","lat":-4.270039,"lng":-81.2133262,"capacity":212,"trend":188,"status":"medium"},
{"id":165,"name":"Sabugo","lat":38.8248475,"lng":-9.2968812,"capacity":218,"trend":47,"status":"high"},
{"id":166,"name":"Łęki","lat":50.023333,"lng":20.6832469,"capacity":57,"trend":282,"status":"medium"},
{"id":167,"name":"Mexico","lat":14.4783119,"lng":121.0331004,"capacity":254,"trend":232,"status":"medium"},
{"id":168,"name":"Venlo","lat":51.3869562,"lng":6.1704266,"capacity":102,"trend":141,"status":"low"},
{"id":169,"name":"Aguas Corrientes","lat":-34.5244257,"lng":-56.3908165,"capacity":198,"trend":143,"status":"low"},
{"id":170,"name":"Kota Bharu","lat":6.1097207,"lng":102.2462087,"capacity":91,"trend":79,"status":"low"},
{"id":171,"name":"Novyy Oskol","lat":50.7885238,"lng":37.8995347,"capacity":261,"trend":21,"status":"high"},
{"id":172,"name":"Taihe","lat":26.789958,"lng":114.908872,"capacity":261,"trend":212,"status":"low"},
{"id":173,"name":"Byera Village","lat":13.2570942,"lng":-61.125756,"capacity":275,"trend":67,"status":"high"},
{"id":174,"name":"Ząbkowice Śląskie","lat":50.5888258,"lng":16.8098022,"capacity":230,"trend":151,"status":"low"},
{"id":175,"name":"Alajuela","lat":10.0165314,"lng":-84.2184331,"capacity":266,"trend":209,"status":"high"},
{"id":176,"name":"Huayana","lat":-13.1562092,"lng":-72.5464495,"capacity":135,"trend":157,"status":"low"},
{"id":177,"name":"Novaya Igirma","lat":57.1355803,"lng":103.9325393,"capacity":168,"trend":77,"status":"low"},
{"id":178,"name":"Cibojong","lat":-6.2433851,"lng":105.9200531,"capacity":272,"trend":57,"status":"medium"},
{"id":179,"name":"Fengshan","lat":24.546876,"lng":107.04219,"capacity":165,"trend":112,"status":"high"},
{"id":180,"name":"Chillán","lat":-36.6062618,"lng":-72.1023351,"capacity":292,"trend":117,"status":"high"},
{"id":181,"name":"Weitian","lat":27.70841,"lng":118.79264,"capacity":159,"trend":202,"status":"high"},
{"id":182,"name":"Cikaung","lat":-6.3079232,"lng":107.172085,"capacity":261,"trend":12,"status":"low"},
{"id":183,"name":"Martanesh","lat":41.4230192,"lng":20.2030313,"capacity":179,"trend":148,"status":"high"},
{"id":184,"name":"São Domingos","lat":15.0286165,"lng":-23.563922,"capacity":119,"trend":198,"status":"low"},
{"id":185,"name":"Donghui","lat":27.719827,"lng":106.929757,"capacity":108,"trend":297,"status":"medium"},
{"id":186,"name":"Starobelokurikha","lat":52.05206,"lng":85.08765,"capacity":191,"trend":205,"status":"medium"},
{"id":187,"name":"Azacualpa","lat":14.7121689,"lng":-88.0876336,"capacity":186,"trend":210,"status":"medium"},
{"id":188,"name":"Saint Joseph","lat":39.6924206,"lng":-94.9143239,"capacity":282,"trend":141,"status":"high"},
{"id":189,"name":"Tabanan","lat":-8.4595561,"lng":115.0465991,"capacity":147,"trend":89,"status":"high"},
{"id":190,"name":"Andahuaylillas","lat":-13.674114,"lng":-71.6777177,"capacity":195,"trend":279,"status":"medium"},
{"id":191,"name":"Yaurisque","lat":-13.67337,"lng":-71.925346,"capacity":296,"trend":174,"status":"high"},
{"id":192,"name":"Åtvidaberg","lat":58.2124026,"lng":16.0053643,"capacity":231,"trend":216,"status":"low"},
{"id":193,"name":"Brzeszcze","lat":49.966515,"lng":19.177858,"capacity":58,"trend":227,"status":"medium"},
{"id":194,"name":"Strasbourg","lat":48.5347071,"lng":7.6370168,"capacity":87,"trend":78,"status":"high"},
{"id":195,"name":"Koźle","lat":52.5725229,"lng":16.39454,"capacity":219,"trend":112,"status":"high"},
{"id":196,"name":"San Fernando del Valle de Catamarca","lat":-28.4627561,"lng":-65.780154,"capacity":68,"trend":40,"status":"low"},
{"id":197,"name":"Darungan Lor","lat":-7.7766561,"lng":112.1579249,"capacity":89,"trend":114,"status":"high"},
{"id":198,"name":"St. Catharines","lat":43.1508732,"lng":-79.2056361,"capacity":234,"trend":12,"status":"low"},
{"id":199,"name":"Příbram","lat":49.1954831,"lng":16.2990752,"capacity":294,"trend":128,"status":"medium"},
{"id":200,"name":"Alenquer","lat":-0.8667864,"lng":-54.9611836,"capacity":280,"trend":170,"status":"medium"},
{"id":201,"name":"Pomiechówek","lat":52.4908529,"lng":20.7239452,"capacity":138,"trend":68,"status":"high"},
{"id":202,"name":"Condado","lat":-7.5944434,"lng":-35.1048713,"capacity":71,"trend":98,"status":"medium"},
{"id":203,"name":"Shamakhi","lat":40.6318731,"lng":48.6363801,"capacity":230,"trend":159,"status":"high"},
{"id":204,"name":"Los Tangos","lat":15.1398293,"lng":-88.6714295,"capacity":101,"trend":243,"status":"low"},
{"id":205,"name":"Jermuk","lat":39.8172259,"lng":45.6727334,"capacity":111,"trend":3,"status":"low"},
{"id":206,"name":"Santo Amaro da Imperatriz","lat":-27.6856839,"lng":-48.7817857,"capacity":247,"trend":117,"status":"high"},
{"id":207,"name":"Lidu","lat":39.9778273,"lng":116.4792741,"capacity":242,"trend":173,"status":"medium"},
{"id":208,"name":"Khirbat Tīn Nūr","lat":34.70044,"lng":36.55641,"capacity":284,"trend":25,"status":"low"},
{"id":209,"name":"Limoges","lat":45.521519,"lng":3.5276642,"capacity":209,"trend":232,"status":"low"},
{"id":210,"name":"Palmas De Gran Canaria, Las","lat":28.0990178,"lng":-15.4203257,"capacity":105,"trend":51,"status":"low"},
{"id":211,"name":"Saihan Tal","lat":42.73583,"lng":112.65139,"capacity":107,"trend":17,"status":"low"},
{"id":212,"name":"Karlskoga","lat":59.2423602,"lng":14.4352781,"capacity":172,"trend":270,"status":"high"},
{"id":213,"name":"Oygon","lat":28.6882677,"lng":77.1349293,"capacity":146,"trend":210,"status":"high"},
{"id":214,"name":"Marinhais","lat":39.0614002,"lng":-8.7269577,"capacity":241,"trend":38,"status":"high"},
{"id":215,"name":"Wangliao","lat":31.7304839,"lng":117.3437409,"capacity":263,"trend":158,"status":"high"},
{"id":216,"name":"Volzhskiy","lat":48.7736083,"lng":44.8250459,"capacity":193,"trend":273,"status":"low"},
{"id":217,"name":"Fangyan","lat":27.9242858,"lng":120.8214721,"capacity":186,"trend":274,"status":"high"},
{"id":218,"name":"Heshui","lat":35.819227,"lng":108.019549,"capacity":263,"trend":96,"status":"low"},
{"id":219,"name":"Jianlong","lat":39.825495,"lng":116.288478,"capacity":129,"trend":13,"status":"low"},
{"id":220,"name":"Qal‘ah-ye Kūf","lat":38.04119,"lng":70.47298,"capacity":164,"trend":231,"status":"high"},
{"id":221,"name":"Khorosheve","lat":49.854824,"lng":36.2090012,"capacity":60,"trend":230,"status":"high"},
{"id":222,"name":"Fengpo","lat":27.518353,"lng":118.038714,"capacity":246,"trend":146,"status":"medium"},
{"id":223,"name":"Khān Shaykhūn","lat":35.4403783,"lng":36.65721,"capacity":223,"trend":256,"status":"low"},
{"id":224,"name":"Pilang","lat":-2.4431287,"lng":114.2152731,"capacity":228,"trend":178,"status":"low"},
{"id":225,"name":"Liushutun","lat":42.632281,"lng":122.980034,"capacity":252,"trend":133,"status":"medium"},
{"id":226,"name":"Yangzi","lat":30.5211502,"lng":112.8915932,"capacity":202,"trend":76,"status":"high"},
{"id":227,"name":"Charxin","lat":39.6725789,"lng":66.7724653,"capacity":149,"trend":174,"status":"low"},
{"id":228,"name":"Troitskoye","lat":56.3035039,"lng":36.4948768,"capacity":59,"trend":170,"status":"low"},
{"id":229,"name":"Korenovsk","lat":45.4401623,"lng":39.5186898,"capacity":138,"trend":94,"status":"medium"},
{"id":230,"name":"Danderyd","lat":59.406891,"lng":18.0157421,"capacity":99,"trend":70,"status":"high"},
{"id":231,"name":"Kluczbork","lat":50.9742202,"lng":18.2111759,"capacity":223,"trend":161,"status":"high"},
{"id":232,"name":"Tanqiao","lat":29.865988,"lng":121.553559,"capacity":251,"trend":265,"status":"medium"},
{"id":233,"name":"Beregovoy","lat":46.3043619,"lng":38.9758429,"capacity":212,"trend":50,"status":"medium"},
{"id":234,"name":"Chalon-sur-Saône","lat":46.791046,"lng":4.840663,"capacity":104,"trend":218,"status":"medium"},
{"id":235,"name":"Mora","lat":61.0180334,"lng":14.6053692,"capacity":152,"trend":145,"status":"low"},
{"id":236,"name":"Kachug","lat":53.9608024,"lng":105.8754575,"capacity":284,"trend":181,"status":"low"},
{"id":237,"name":"Ordóñez","lat":-33.1416441,"lng":-64.3600342,"capacity":106,"trend":52,"status":"medium"},
{"id":238,"name":"Duraznopampa","lat":-6.5581455,"lng":-77.815285,"capacity":144,"trend":108,"status":"low"},
{"id":239,"name":"Saue","lat":59.3213754,"lng":24.5571211,"capacity":134,"trend":47,"status":"high"},
{"id":240,"name":"Gajrug","lat":-6.4930095,"lng":106.3875898,"capacity":184,"trend":115,"status":"medium"},
{"id":241,"name":"Phu Kam Yao","lat":19.2273454,"lng":99.9608287,"capacity":239,"trend":249,"status":"medium"},
{"id":242,"name":"Abangay","lat":11.011535,"lng":122.650377,"capacity":295,"trend":61,"status":"low"},
{"id":243,"name":"Kashmor","lat":28.3259527,"lng":69.8373919,"capacity":114,"trend":163,"status":"low"},
{"id":244,"name":"Shuinan","lat":36.457599,"lng":111.439528,"capacity":50,"trend":168,"status":"low"},
{"id":245,"name":"Maredakalada","lat":-9.5994215,"lng":119.3221307,"capacity":275,"trend":144,"status":"low"},
{"id":246,"name":"Puerto Padre","lat":21.1878548,"lng":-76.606611,"capacity":236,"trend":140,"status":"high"},
{"id":247,"name":"Osasco","lat":-23.534948,"lng":-46.7737972,"capacity":85,"trend":244,"status":"high"},
{"id":248,"name":"Batulawang","lat":-6.6769374,"lng":107.0244171,"capacity":300,"trend":97,"status":"high"},
{"id":249,"name":"Manjiang","lat":41.949852,"lng":127.596645,"capacity":246,"trend":66,"status":"high"},
{"id":250,"name":"Libode","lat":-31.5469052,"lng":29.0213682,"capacity":181,"trend":127,"status":"high"},
{"id":251,"name":"Mortka","lat":59.332724,"lng":66.011516,"capacity":292,"trend":61,"status":"high"},
{"id":252,"name":"Lappeenranta","lat":60.9794357,"lng":28.0853523,"capacity":101,"trend":167,"status":"medium"},
{"id":253,"name":"Kranggan","lat":-7.3,"lng":109.066667,"capacity":132,"trend":49,"status":"medium"},
{"id":254,"name":"Iguape","lat":-24.5082407,"lng":-47.5275422,"capacity":102,"trend":222,"status":"medium"},
{"id":255,"name":"Yantianhe","lat":30.967145,"lng":115.161532,"capacity":135,"trend":237,"status":"low"},
{"id":256,"name":"Limon","lat":11.2807738,"lng":124.5651398,"capacity":104,"trend":106,"status":"low"},
{"id":257,"name":"Santo Niño","lat":14.3839328,"lng":121.050126,"capacity":273,"trend":147,"status":"high"},
{"id":258,"name":"Petrovsk","lat":52.2876905,"lng":45.3602833,"capacity":271,"trend":77,"status":"medium"},
{"id":259,"name":"Hīt","lat":33.6435199,"lng":42.8253662,"capacity":105,"trend":149,"status":"medium"},
{"id":260,"name":"Khun Han","lat":14.6333602,"lng":104.373372,"capacity":183,"trend":138,"status":"medium"},
{"id":261,"name":"Lisia Góra","lat":50.0994713,"lng":21.0432139,"capacity":199,"trend":65,"status":"low"},
{"id":262,"name":"Ciroyom","lat":-6.9149429,"lng":107.5890217,"capacity":84,"trend":59,"status":"medium"},
{"id":263,"name":"Karanganyar","lat":-7.6387228,"lng":111.0460407,"capacity":237,"trend":120,"status":"high"},
{"id":264,"name":"Eusébio","lat":-3.8932818,"lng":-38.463596,"capacity":135,"trend":167,"status":"medium"},
{"id":265,"name":"Olds","lat":51.7920135,"lng":-114.105279,"capacity":179,"trend":206,"status":"medium"},
{"id":266,"name":"Lakbok","lat":-7.40638,"lng":108.6591293,"capacity":63,"trend":293,"status":"high"},
{"id":267,"name":"Yasothon","lat":15.8515169,"lng":104.1698463,"capacity":117,"trend":67,"status":"medium"},
{"id":268,"name":"Tajrīsh","lat":35.7952267,"lng":51.4322706,"capacity":141,"trend":164,"status":"high"},
{"id":269,"name":"Numazu","lat":38.4499141,"lng":141.3800956,"capacity":96,"trend":127,"status":"high"},
{"id":270,"name":"Bohorodchany","lat":48.8078325,"lng":24.54095,"capacity":205,"trend":16,"status":"medium"},
{"id":271,"name":"Federal","lat":-34.6727765,"lng":-58.550564,"capacity":288,"trend":204,"status":"low"},
{"id":272,"name":"Mirebalais","lat":18.8350125,"lng":-72.1031057,"capacity":123,"trend":65,"status":"medium"},
{"id":273,"name":"Mbanza Congo","lat":-6.2694214,"lng":14.2337805,"capacity":187,"trend":105,"status":"medium"},
{"id":274,"name":"Birigui","lat":-21.2922593,"lng":-50.3407923,"capacity":133,"trend":235,"status":"low"},
{"id":275,"name":"Xiliguantun","lat":37.07833,"lng":115.94139,"capacity":123,"trend":92,"status":"high"},
{"id":276,"name":"Issy-les-Moulineaux","lat":48.821908,"lng":2.2615744,"capacity":219,"trend":284,"status":"high"},
{"id":277,"name":"Heitan","lat":32.027934,"lng":106.657113,"capacity":205,"trend":286,"status":"medium"},
{"id":278,"name":"Alverca do Ribatejo","lat":38.9025835,"lng":-9.040848,"capacity":232,"trend":147,"status":"high"},
{"id":279,"name":"Zürich","lat":47.395226,"lng":8.5216392,"capacity":245,"trend":146,"status":"medium"},
{"id":280,"name":"Marmárion","lat":38.0491517,"lng":24.3217397,"capacity":288,"trend":242,"status":"high"},
{"id":281,"name":"Natu","lat":-9.3809238,"lng":119.3984531,"capacity":121,"trend":153,"status":"high"},
{"id":282,"name":"Oslo","lat":59.9050895,"lng":10.7673005,"capacity":141,"trend":9,"status":"high"},
{"id":283,"name":"Wugong","lat":34.326903,"lng":108.117456,"capacity":224,"trend":21,"status":"low"},
{"id":284,"name":"Sokolac","lat":43.9340953,"lng":18.8019069,"capacity":199,"trend":5,"status":"low"},
{"id":285,"name":"Cheqiao","lat":30.081941,"lng":120.495065,"capacity":224,"trend":16,"status":"medium"},
{"id":286,"name":"Korolev","lat":55.9167676,"lng":37.8297426,"capacity":252,"trend":240,"status":"medium"},
{"id":287,"name":"Negotin","lat":44.2288747,"lng":22.5310674,"capacity":207,"trend":170,"status":"high"},
{"id":288,"name":"Maying","lat":38.235041,"lng":115.726317,"capacity":175,"trend":183,"status":"high"},
{"id":289,"name":"Aurora","lat":14.5458392,"lng":121.0044883,"capacity":269,"trend":79,"status":"medium"},
{"id":290,"name":"Chichinales","lat":-38.9126083,"lng":-67.976045,"capacity":259,"trend":13,"status":"low"},
{"id":291,"name":"Nizhneivkino","lat":58.1951391,"lng":49.5179263,"capacity":296,"trend":256,"status":"low"},
{"id":292,"name":"Loncoche","lat":-39.3681199,"lng":-72.6315127,"capacity":142,"trend":299,"status":"low"},
{"id":293,"name":"Balad","lat":34.0076216,"lng":44.148291,"capacity":50,"trend":285,"status":"medium"},
{"id":294,"name":"Kukur","lat":40.8673649,"lng":20.3621596,"capacity":290,"trend":37,"status":"high"},
{"id":295,"name":"Da’ao","lat":22.481274,"lng":113.217762,"capacity":135,"trend":279,"status":"low"},
{"id":296,"name":"Cabinteely","lat":53.2599034,"lng":-6.1603828,"capacity":284,"trend":212,"status":"medium"},
{"id":297,"name":"Cibeureum","lat":-6.939897,"lng":106.9506175,"capacity":111,"trend":283,"status":"high"},
{"id":298,"name":"Kubang","lat":-0.1423977,"lng":100.4902451,"capacity":280,"trend":69,"status":"low"},
{"id":299,"name":"Saint-Jérôme","lat":45.7738831,"lng":-73.9771044,"capacity":248,"trend":296,"status":"low"},
{"id":300,"name":"Toba Tek Singh","lat":30.9658281,"lng":72.5694175,"capacity":51,"trend":3,"status":"medium"},
{"id":301,"name":"Zaprudnya","lat":56.5637319,"lng":37.4286044,"capacity":188,"trend":152,"status":"high"},
{"id":302,"name":"Linhó","lat":38.769738,"lng":-9.3779954,"capacity":64,"trend":275,"status":"low"},
{"id":303,"name":"Turirejo","lat":-6.8348685,"lng":110.6735079,"capacity":215,"trend":114,"status":"low"},
{"id":304,"name":"Henghe","lat":29.756501,"lng":121.507191,"capacity":300,"trend":185,"status":"medium"},
{"id":305,"name":"Kiel","lat":54.3171885,"lng":10.0477345,"capacity":52,"trend":104,"status":"high"},
{"id":306,"name":"Shuikou","lat":26.319938,"lng":113.810157,"capacity":264,"trend":146,"status":"low"},
{"id":307,"name":"Chengdong","lat":36.599744,"lng":101.803717,"capacity":231,"trend":77,"status":"medium"},
{"id":308,"name":"Kisai","lat":36.1008689,"lng":139.5772452,"capacity":171,"trend":280,"status":"high"},
{"id":309,"name":"Honolulu","lat":21.31,"lng":-157.86,"capacity":154,"trend":82,"status":"low"},
{"id":310,"name":"Strel'na","lat":59.8583045,"lng":30.0461164,"capacity":109,"trend":173,"status":"high"},
{"id":311,"name":"Bonabéri","lat":4.0776879,"lng":9.6508401,"capacity":293,"trend":6,"status":"medium"},
{"id":312,"name":"Bolobo","lat":-2.1587078,"lng":16.2345633,"capacity":92,"trend":165,"status":"high"},
{"id":313,"name":"Meilin","lat":31.7311971,"lng":117.2313179,"capacity":204,"trend":102,"status":"low"},
{"id":314,"name":"Saint-Brieuc","lat":48.509075,"lng":-2.7383235,"capacity":259,"trend":82,"status":"medium"},
{"id":315,"name":"Caiyuan","lat":37.87059,"lng":112.548879,"capacity":154,"trend":169,"status":"medium"},
{"id":316,"name":"Açucena","lat":-19.0764128,"lng":-42.5478901,"capacity":250,"trend":291,"status":"medium"},
{"id":317,"name":"Turangi","lat":-38.9898711,"lng":175.8087485,"capacity":250,"trend":258,"status":"high"},
{"id":318,"name":"Sara Kunda","lat":13.533238,"lng":-15.412011,"capacity":159,"trend":248,"status":"medium"},
{"id":319,"name":"Vilque","lat":-15.7665609,"lng":-70.2594346,"capacity":274,"trend":240,"status":"low"},
{"id":320,"name":"Sundbyberg","lat":59.3618675,"lng":17.9791475,"capacity":201,"trend":199,"status":"medium"},
{"id":321,"name":"Wolongquan","lat":28.074649,"lng":119.141473,"capacity":264,"trend":256,"status":"high"},
{"id":322,"name":"Nijemci","lat":45.1216628,"lng":19.0173647,"capacity":200,"trend":13,"status":"medium"},
{"id":323,"name":"Chisht-e Sharīf","lat":34.34013,"lng":63.75288,"capacity":276,"trend":8,"status":"medium"},
{"id":324,"name":"Minneapolis","lat":44.9799999,"lng":-93.26,"capacity":229,"trend":176,"status":"low"},
{"id":325,"name":"Tong’an","lat":24.722747,"lng":118.152148,"capacity":130,"trend":226,"status":"low"},
{"id":326,"name":"Krasnoznamensk","lat":55.597144,"lng":37.0361031,"capacity":76,"trend":255,"status":"high"},
{"id":327,"name":"Huangli","lat":31.637714,"lng":119.716535,"capacity":209,"trend":23,"status":"low"},
{"id":328,"name":"Kagawasan","lat":9.3140186,"lng":123.3026369,"capacity":183,"trend":287,"status":"high"},
{"id":329,"name":"Tozkhurmato","lat":34.8809639,"lng":44.6207633,"capacity":247,"trend":142,"status":"medium"},
{"id":330,"name":"Simpang","lat":-1.259553,"lng":104.100502,"capacity":71,"trend":116,"status":"high"},
{"id":331,"name":"Nzega","lat":-2.479,"lng":29.5564,"capacity":241,"trend":208,"status":"medium"},
{"id":332,"name":"Qobustan","lat":40.0877962,"lng":49.4030218,"capacity":239,"trend":62,"status":"low"},
{"id":333,"name":"Mercedes","lat":14.5634196,"lng":121.0307955,"capacity":134,"trend":190,"status":"medium"},
{"id":334,"name":"Qo‘qon","lat":40.5341079,"lng":70.9309024,"capacity":157,"trend":36,"status":"low"},
{"id":335,"name":"Yasothon","lat":15.8515169,"lng":104.1698463,"capacity":164,"trend":228,"status":"high"},
{"id":336,"name":"Yangcun","lat":22.170437,"lng":111.791539,"capacity":261,"trend":196,"status":"high"},
{"id":337,"name":"Kihniö","lat":62.2030006,"lng":23.1762739,"capacity":68,"trend":267,"status":"low"},
{"id":338,"name":"Carepa","lat":7.755354,"lng":-76.6554309,"capacity":124,"trend":50,"status":"high"},
{"id":339,"name":"Dobrá","lat":49.6738269,"lng":18.413937,"capacity":217,"trend":188,"status":"medium"},
{"id":340,"name":"Voinjama","lat":8.4201951,"lng":-9.7539282,"capacity":110,"trend":2,"status":"low"},
{"id":341,"name":"Buguruslan","lat":53.602954,"lng":53.0390034,"capacity":237,"trend":112,"status":"high"},
{"id":342,"name":"Shikhany","lat":52.1173637,"lng":47.2076504,"capacity":187,"trend":88,"status":"low"},
{"id":343,"name":"Artashat","lat":39.9535181,"lng":44.5519782,"capacity":154,"trend":184,"status":"high"},
{"id":344,"name":"Bungtiang Barat","lat":-8.7367925,"lng":116.4872482,"capacity":97,"trend":252,"status":"low"},
{"id":345,"name":"Bambor","lat":-6.987312,"lng":110.389141,"capacity":91,"trend":241,"status":"high"},
{"id":346,"name":"Liancheng","lat":25.710538,"lng":116.754472,"capacity":126,"trend":291,"status":"medium"},
{"id":347,"name":"Banyubang","lat":-6.9244162,"lng":112.4142453,"capacity":282,"trend":109,"status":"low"},
{"id":348,"name":"Svetlyy","lat":54.7599431,"lng":20.1021063,"capacity":283,"trend":251,"status":"medium"},
{"id":349,"name":"Carmen","lat":7.20312,"lng":124.796217,"capacity":272,"trend":19,"status":"high"},
{"id":350,"name":"Ialoveni","lat":46.9656528,"lng":28.7657722,"capacity":261,"trend":215,"status":"low"},
{"id":351,"name":"Sidamukti","lat":-6.858925,"lng":108.2080973,"capacity":144,"trend":8,"status":"low"},
{"id":352,"name":"Xiongchi","lat":28.786167,"lng":108.176236,"capacity":151,"trend":192,"status":"low"},
{"id":353,"name":"La Calera","lat":-32.7910792,"lng":-71.2106242,"capacity":207,"trend":84,"status":"low"},
{"id":354,"name":"Skhira","lat":34.2976247,"lng":10.0751331,"capacity":182,"trend":234,"status":"medium"},
{"id":355,"name":"Atocha","lat":-20.9343608,"lng":-66.220355,"capacity":90,"trend":56,"status":"low"},
{"id":356,"name":"Kazinka","lat":53.7133491,"lng":40.9922209,"capacity":175,"trend":75,"status":"high"},
{"id":357,"name":"Kraljevica","lat":45.2646668,"lng":14.5795071,"capacity":209,"trend":290,"status":"low"},
{"id":358,"name":"Chengyue","lat":21.17016,"lng":110.084068,"capacity":146,"trend":102,"status":"low"},
{"id":359,"name":"Ciervo Petiso","lat":-26.58041,"lng":-59.63094,"capacity":254,"trend":21,"status":"low"},
{"id":360,"name":"Kislyakovskaya","lat":46.4482967,"lng":39.6777217,"capacity":152,"trend":71,"status":"low"},
{"id":361,"name":"Taoudenni","lat":22.6764132,"lng":-3.9789143,"capacity":134,"trend":150,"status":"medium"},
{"id":362,"name":"Ajaccio","lat":46.6473105,"lng":0.813275,"capacity":132,"trend":285,"status":"medium"},
{"id":363,"name":"Polazna","lat":58.3005959,"lng":56.4173346,"capacity":176,"trend":63,"status":"low"},
{"id":364,"name":"Labuan","lat":7.1133648,"lng":125.6286673,"capacity":250,"trend":216,"status":"high"},
{"id":365,"name":"Puncan","lat":16.0406339,"lng":120.5903599,"capacity":109,"trend":9,"status":"low"},
{"id":366,"name":"Buenavista","lat":19.4458447,"lng":-99.1497664,"capacity":91,"trend":5,"status":"low"},
{"id":367,"name":"Anyama","lat":5.4877137,"lng":-4.0516619,"capacity":104,"trend":46,"status":"medium"},
{"id":368,"name":"Břeclav","lat":48.7320309,"lng":16.905384,"capacity":87,"trend":30,"status":"medium"},
{"id":369,"name":"Libertador General San Martín","lat":-34.6893836,"lng":-58.5801516,"capacity":108,"trend":157,"status":"low"},
{"id":370,"name":"Bandaragung","lat":-5.3003056,"lng":105.6823124,"capacity":246,"trend":220,"status":"high"},
{"id":371,"name":"Angers","lat":47.4441206,"lng":-0.5572458,"capacity":285,"trend":109,"status":"low"},
{"id":372,"name":"El Parco District","lat":-5.6202503,"lng":-78.4695111,"capacity":257,"trend":163,"status":"medium"},
{"id":373,"name":"Wukeshu","lat":24.820587,"lng":103.323844,"capacity":296,"trend":139,"status":"medium"},
{"id":374,"name":"Zásmuky","lat":49.954706,"lng":15.0305859,"capacity":202,"trend":289,"status":"low"},
{"id":375,"name":"Altos","lat":-5.0175431,"lng":-42.5117238,"capacity":140,"trend":205,"status":"medium"},
{"id":376,"name":"Trondheim","lat":63.4327941,"lng":10.4032837,"capacity":125,"trend":205,"status":"low"},
{"id":377,"name":"Järfälla","lat":59.4487214,"lng":17.8043161,"capacity":208,"trend":256,"status":"medium"},
{"id":378,"name":"Bua Yai","lat":15.5835978,"lng":102.4253001,"capacity":198,"trend":30,"status":"low"},
{"id":379,"name":"Kortesjärvi","lat":63.1507161,"lng":23.1069244,"capacity":132,"trend":118,"status":"medium"},
{"id":380,"name":"Killorglin","lat":52.1058991,"lng":-9.7850991,"capacity":120,"trend":178,"status":"low"},
{"id":381,"name":"Bunisari","lat":-7.6557879,"lng":108.3979331,"capacity":163,"trend":186,"status":"high"},
{"id":382,"name":"Shwebo","lat":22.5786554,"lng":95.6983979,"capacity":262,"trend":14,"status":"high"},
{"id":383,"name":"Zhenziliang","lat":39.574695,"lng":113.28303,"capacity":268,"trend":129,"status":"high"},
{"id":384,"name":"Yangxi","lat":21.752396,"lng":111.617849,"capacity":75,"trend":225,"status":"low"},
{"id":385,"name":"Gonghe","lat":36.284107,"lng":100.620031,"capacity":158,"trend":258,"status":"medium"},
{"id":386,"name":"Changling","lat":44.275895,"lng":123.9674831,"capacity":291,"trend":120,"status":"low"},
{"id":387,"name":"Jablonec nad Jizerou","lat":50.7020967,"lng":15.4437382,"capacity":168,"trend":257,"status":"medium"},
{"id":388,"name":"Porto Martins","lat":38.694365,"lng":-27.066757,"capacity":213,"trend":177,"status":"medium"},
{"id":389,"name":"Caicun","lat":25.714796,"lng":100.193584,"capacity":211,"trend":117,"status":"high"},
{"id":390,"name":"Kuznechnoye","lat":61.1251,"lng":29.8708001,"capacity":126,"trend":237,"status":"low"},
{"id":391,"name":"Marne-la-Vallée","lat":48.8383589,"lng":2.6618245,"capacity":54,"trend":155,"status":"high"},
{"id":392,"name":"Heka","lat":24.4670098,"lng":118.0855763,"capacity":211,"trend":48,"status":"low"},
{"id":393,"name":"Guangyi","lat":23.7247599,"lng":108.8076195,"capacity":283,"trend":116,"status":"medium"},
{"id":394,"name":"Malausma Kidul","lat":-7.0370275,"lng":108.2496145,"capacity":70,"trend":13,"status":"low"},
{"id":395,"name":"Ulsan","lat":35.5383773,"lng":129.3113596,"capacity":66,"trend":297,"status":"high"},
{"id":396,"name":"Swan Hills","lat":54.71681,"lng":-115.40226,"capacity":226,"trend":188,"status":"high"},
{"id":397,"name":"Budzów","lat":49.788203,"lng":19.70598,"capacity":155,"trend":187,"status":"medium"},
{"id":398,"name":"Francisco I Madero","lat":25.7784224,"lng":-103.2605763,"capacity":62,"trend":153,"status":"low"},
{"id":399,"name":"Mazār-e Sharīf","lat":36.6926167,"lng":67.1179511,"capacity":86,"trend":153,"status":"medium"},
{"id":400,"name":"Saladas","lat":-27.4413635,"lng":-58.7832105,"capacity":138,"trend":20,"status":"medium"},
{"id":401,"name":"Varge Mondar","lat":38.7554084,"lng":-9.3408903,"capacity":257,"trend":176,"status":"low"},
{"id":402,"name":"Na Yong","lat":7.5670301,"lng":99.745565,"capacity":84,"trend":190,"status":"high"},
{"id":403,"name":"Esquina","lat":-34.6161437,"lng":-58.5238406,"capacity":223,"trend":287,"status":"low"},
{"id":404,"name":"Hexiangqiao","lat":29.916694,"lng":121.529927,"capacity":53,"trend":219,"status":"high"},
{"id":405,"name":"Vale da Pedra","lat":39.8595809,"lng":-8.7836111,"capacity":245,"trend":190,"status":"low"},
{"id":406,"name":"Hantara","lat":-7.0695176,"lng":108.463214,"capacity":270,"trend":135,"status":"medium"},
{"id":407,"name":"Uppsala","lat":59.853262,"lng":17.6356163,"capacity":114,"trend":177,"status":"medium"},
{"id":408,"name":"Šoštanj","lat":46.3782836,"lng":15.0461378,"capacity":142,"trend":296,"status":"high"},
{"id":409,"name":"Bendosewu","lat":-8.1275349,"lng":112.2711875,"capacity":220,"trend":29,"status":"low"},
{"id":410,"name":"Naga","lat":2.9614905,"lng":98.2705298,"capacity":169,"trend":214,"status":"high"},
{"id":411,"name":"Tralee","lat":52.2413206,"lng":-7.0833118,"capacity":298,"trend":34,"status":"high"},
{"id":412,"name":"Benito Juarez","lat":19.4102526,"lng":-99.0073673,"capacity":219,"trend":173,"status":"low"},
{"id":413,"name":"Chumpi","lat":-15.10129,"lng":-73.754257,"capacity":225,"trend":101,"status":"medium"},
{"id":414,"name":"Khorramdarreh","lat":36.2109406,"lng":49.1929609,"capacity":163,"trend":65,"status":"low"},
{"id":415,"name":"Dagua","lat":3.5053203,"lng":-76.7105632,"capacity":252,"trend":54,"status":"low"},
{"id":416,"name":"Tongliao","lat":43.65289,"lng":122.243444,"capacity":54,"trend":59,"status":"low"},
{"id":417,"name":"Al Jaghbūb","lat":29.7417348,"lng":24.5168391,"capacity":141,"trend":288,"status":"medium"},
{"id":418,"name":"San Francisco","lat":8.508983,"lng":125.969667,"capacity":270,"trend":119,"status":"high"},
{"id":419,"name":"Belgorod","lat":50.4534011,"lng":36.8469573,"capacity":178,"trend":237,"status":"high"},
{"id":420,"name":"Saint-Quentin-en-Yvelines","lat":48.7853082,"lng":2.072661,"capacity":55,"trend":158,"status":"medium"},
{"id":421,"name":"Belgrade","lat":44.786568,"lng":20.4489216,"capacity":127,"trend":98,"status":"high"},
{"id":422,"name":"Taozhou","lat":28.65638,"lng":121.42076,"capacity":274,"trend":173,"status":"medium"},
{"id":423,"name":"Khon Buri","lat":14.4349111,"lng":102.1632718,"capacity":224,"trend":249,"status":"medium"},
{"id":424,"name":"Kendalngupuk","lat":-7.4435,"lng":107.2553,"capacity":243,"trend":246,"status":"low"},
{"id":425,"name":"Ngandangan","lat":-6.695,"lng":111.464,"capacity":227,"trend":57,"status":"medium"},
{"id":426,"name":"Halmstad","lat":56.658933,"lng":12.87013,"capacity":77,"trend":191,"status":"low"},
{"id":427,"name":"Hagonoy","lat":14.7464846,"lng":121.0764017,"capacity":260,"trend":222,"status":"medium"},
{"id":428,"name":"Ponte Nova","lat":41.2717724,"lng":-8.2890328,"capacity":143,"trend":104,"status":"low"},
{"id":429,"name":"Evinayong","lat":1.4403613,"lng":10.5718086,"capacity":87,"trend":21,"status":"high"},
{"id":430,"name":"Jamaica","lat":40.6998888,"lng":-73.8076421,"capacity":234,"trend":226,"status":"low"},
{"id":431,"name":"Atães","lat":41.4548181,"lng":-8.2493359,"capacity":205,"trend":293,"status":"low"},
{"id":432,"name":"Chaloem Phra Kiat","lat":14.5042512,"lng":101.948349,"capacity":57,"trend":17,"status":"low"},
{"id":433,"name":"Hanamaki","lat":40.6195225,"lng":140.6519871,"capacity":158,"trend":40,"status":"high"},
{"id":434,"name":"Magersari","lat":-7.466569,"lng":112.4500076,"capacity":53,"trend":249,"status":"high"},
{"id":435,"name":"Santa Fe","lat":25.692148,"lng":-100.2638682,"capacity":134,"trend":38,"status":"medium"},
{"id":436,"name":"Bairan","lat":10.1985612,"lng":123.7192022,"capacity":52,"trend":247,"status":"low"},
{"id":437,"name":"Akráta","lat":38.1535213,"lng":22.3143775,"capacity":272,"trend":283,"status":"high"},
{"id":438,"name":"Kalapagada","lat":-7.3943,"lng":108.6614,"capacity":264,"trend":290,"status":"low"},
{"id":439,"name":"Beau Vallon","lat":-4.6210967,"lng":55.4277802,"capacity":222,"trend":23,"status":"high"},
{"id":440,"name":"Groblersdal","lat":-25.16575,"lng":29.38926,"capacity":175,"trend":126,"status":"low"},
{"id":441,"name":"Palilula","lat":44.9398868,"lng":20.4626509,"capacity":72,"trend":67,"status":"low"},
{"id":442,"name":"Portelândia","lat":-17.3474338,"lng":-52.7455935,"capacity":278,"trend":90,"status":"high"},
{"id":443,"name":"El Carmen","lat":25.9375976,"lng":-100.3638252,"capacity":231,"trend":179,"status":"medium"},
{"id":444,"name":"Campelos","lat":39.1979413,"lng":-9.2356359,"capacity":223,"trend":201,"status":"high"},
{"id":445,"name":"El Paso","lat":31.77,"lng":-106.43,"capacity":113,"trend":137,"status":"medium"},
{"id":446,"name":"Dorp Tera Kora","lat":12.13333,"lng":-68.26667,"capacity":174,"trend":57,"status":"low"},
{"id":447,"name":"Lexington","lat":37.9098504,"lng":-84.4172666,"capacity":69,"trend":152,"status":"high"},
{"id":448,"name":"Ejmiatsin","lat":40.1632626,"lng":44.2935926,"capacity":138,"trend":53,"status":"high"},
{"id":449,"name":"Saint-Louis","lat":16.0326307,"lng":-16.4818167,"capacity":98,"trend":283,"status":"medium"},
{"id":450,"name":"Magalalag","lat":17.5736896,"lng":121.7366394,"capacity":100,"trend":204,"status":"low"},
{"id":451,"name":"Kario","lat":24.7740708,"lng":68.488659,"capacity":169,"trend":90,"status":"medium"},
{"id":452,"name":"Täby","lat":59.4935321,"lng":18.0655876,"capacity":105,"trend":214,"status":"medium"},
{"id":453,"name":"Shipunovo","lat":51.6166409,"lng":82.575905,"capacity":185,"trend":216,"status":"high"},
{"id":454,"name":"Vailoatai","lat":-14.3521224,"lng":-170.7810162,"capacity":175,"trend":130,"status":"high"},
{"id":455,"name":"Radzanów","lat":51.5574609,"lng":20.8640191,"capacity":195,"trend":260,"status":"medium"},
{"id":456,"name":"Broska","lat":45.3707729,"lng":28.7846634,"capacity":280,"trend":84,"status":"medium"},
{"id":457,"name":"Ailigandí","lat":9.0912455,"lng":-79.409706,"capacity":235,"trend":250,"status":"high"},
{"id":458,"name":"Jiangzhang","lat":29.482105,"lng":86.228141,"capacity":166,"trend":96,"status":"low"},
{"id":459,"name":"Tambo Grande","lat":-4.9295129,"lng":-80.3408061,"capacity":194,"trend":7,"status":"medium"},
{"id":460,"name":"Oliveira","lat":-20.6984299,"lng":-44.8256777,"capacity":300,"trend":132,"status":"medium"},
{"id":461,"name":"Shangwuzhuang","lat":36.831603,"lng":101.411973,"capacity":155,"trend":213,"status":"medium"},
{"id":462,"name":"Saint Petersburg","lat":60.0456385,"lng":30.3403569,"capacity":293,"trend":34,"status":"high"},
{"id":463,"name":"Calceta","lat":-0.8406658,"lng":-80.1596041,"capacity":150,"trend":183,"status":"low"},
{"id":464,"name":"Sho’rchi","lat":38.0099999,"lng":67.7914041,"capacity":187,"trend":252,"status":"medium"},
{"id":465,"name":"Thorold","lat":43.1135996,"lng":-79.2169174,"capacity":132,"trend":299,"status":"medium"},
{"id":466,"name":"San Antonio Oeste","lat":-38.9156735,"lng":-67.9800178,"capacity":242,"trend":194,"status":"low"},
{"id":467,"name":"Qal‘eh-ye Khvājeh","lat":32.2048631,"lng":49.4453295,"capacity":153,"trend":18,"status":"medium"},
{"id":468,"name":"Takayama","lat":38.0244455,"lng":140.0946079,"capacity":61,"trend":146,"status":"medium"},
{"id":469,"name":"Pak Phanang","lat":8.287423,"lng":100.1927389,"capacity":265,"trend":292,"status":"low"},
{"id":470,"name":"Ţammūn","lat":32.283121,"lng":35.385789,"capacity":102,"trend":59,"status":"medium"},
{"id":471,"name":"Meïganga","lat":6.5163966,"lng":14.2919273,"capacity":125,"trend":143,"status":"low"},
{"id":472,"name":"Dębica","lat":51.64438,"lng":22.561217,"capacity":82,"trend":237,"status":"low"},
{"id":473,"name":"Cañasgordas","lat":6.750597,"lng":-76.02611,"capacity":60,"trend":265,"status":"medium"},
{"id":474,"name":"Rio Piracicaba","lat":-19.9661142,"lng":-43.1359542,"capacity":53,"trend":22,"status":"high"},
{"id":475,"name":"Zhongtang","lat":23.092389,"lng":113.657419,"capacity":112,"trend":144,"status":"medium"},
{"id":476,"name":"Ermidas do Sado","lat":38.0068597,"lng":-8.385532,"capacity":152,"trend":208,"status":"medium"},
{"id":477,"name":"Ipirá","lat":-12.1880654,"lng":-39.734338,"capacity":293,"trend":241,"status":"high"},
{"id":478,"name":"Momil","lat":9.239504,"lng":-75.6767349,"capacity":280,"trend":232,"status":"high"},
{"id":479,"name":"Mae Wang","lat":18.6796993,"lng":98.6380598,"capacity":124,"trend":110,"status":"low"},
{"id":480,"name":"Mshinskaya","lat":55.7597032,"lng":37.6108925,"capacity":291,"trend":44,"status":"medium"},
{"id":481,"name":"Kedatuan","lat":-5.1504958,"lng":105.1054308,"capacity":85,"trend":285,"status":"low"},
{"id":482,"name":"Chojnice","lat":53.6944002,"lng":17.5569252,"capacity":243,"trend":185,"status":"medium"},
{"id":483,"name":"Tākestān","lat":36.0720984,"lng":49.7013486,"capacity":175,"trend":103,"status":"medium"},
{"id":484,"name":"Citangtu Kaler","lat":-7.1675,"lng":107.989,"capacity":201,"trend":29,"status":"medium"},
{"id":485,"name":"Zhongying","lat":39.953041,"lng":116.371207,"capacity":223,"trend":50,"status":"medium"},
{"id":486,"name":"Oekero","lat":-10.1564032,"lng":124.0496732,"capacity":199,"trend":181,"status":"low"},
{"id":487,"name":"Nangtang","lat":-7.3440911,"lng":107.9917034,"capacity":279,"trend":300,"status":"high"},
{"id":488,"name":"Mranggen","lat":-7.0425557,"lng":110.5096283,"capacity":133,"trend":201,"status":"high"},
{"id":489,"name":"Yayao","lat":30.037192,"lng":121.154634,"capacity":233,"trend":165,"status":"low"},
{"id":490,"name":"Tabuaço","lat":41.1154773,"lng":-7.5627051,"capacity":151,"trend":288,"status":"low"},
{"id":491,"name":"Samoš","lat":45.1611659,"lng":20.7866062,"capacity":234,"trend":273,"status":"high"},
{"id":492,"name":"Mulyo","lat":-7.3348063,"lng":110.5102808,"capacity":197,"trend":154,"status":"medium"},
{"id":493,"name":"Vermil","lat":41.4495777,"lng":-8.3894249,"capacity":215,"trend":60,"status":"high"},
{"id":494,"name":"Hamburg","lat":53.6447228,"lng":10.0383761,"capacity":240,"trend":236,"status":"low"},
{"id":495,"name":"Pindi Gheb","lat":33.237626,"lng":72.270844,"capacity":128,"trend":118,"status":"medium"},
{"id":496,"name":"Guanban","lat":26.308284,"lng":119.677154,"capacity":112,"trend":240,"status":"high"},
{"id":497,"name":"Babakantonggoh","lat":-7.3453791,"lng":108.8941596,"capacity":247,"trend":34,"status":"high"},
{"id":498,"name":"Groznyy","lat":44.6441061,"lng":40.1981432,"capacity":205,"trend":18,"status":"medium"},
{"id":499,"name":"Khorosheve","lat":49.854824,"lng":36.2090012,"capacity":146,"trend":144,"status":"medium"},
{"id":500,"name":"Fayaoué","lat":-20.6537477,"lng":166.5339616,"capacity":179,"trend":89,"status":"low"}]